stop_id,stop_name,stop_lat,stop_lon,location_type,parent_station
2167415591,Улица Московская,56.0079703,92.9629293,0,
12367471955,Детский кинотеатр «Мечта»,55.9947778,92.9716821,0,
12367471956,Детский кинотеатр «Мечта»,55.9947223,92.971841,0,
12367471957,Учкомбинат,55.9909698,92.9744089,0,
12367471958,Учкомбинат,55.9909983,92.9745215,0,
12367471959,Гараж,55.9882224,92.9790028,0,
12367471960,Гараж,55.9882851,92.9789787,0,
12367471961,Образцово,55.9901199,92.9884429,0,
12367471962,Образцово,55.9901878,92.988461,0,
12367471963,Вторчермет,55.9917848,92.9967731,0,
12367471964,Вторчермет,55.9918932,92.9969327,0,
12367471965,Посёлок Инициаторов,55.9932767,93.0039313,0,
12367471966,Посёлок Инициаторов,55.993339,93.0038696,0,
12367471967,Библиотека им. Шевченко,55.9944791,93.0094747,0,
12367471968,Библиотека им. Шевченко,55.9945361,93.0094258,0,
12367471969,Поликлиника (улица Шевченко),55.9954507,93.0136375,0,
12367471970,Поликлиника (улица Шевченко),55.9955977,93.013944,0,
12367471971,Улица Волжская (улица Говорова),55.996887,93.019647,0,
12367471972,Улица Волжская (улица Говорова),55.9969935,93.0198079,0,
12367471973,Кинотеатр «Звёздный»,55.998495,93.0262962,0,
12367471974,Кинотеатр «Звёздный»,55.9986329,93.0262345,0,
12367471975,Посёлок Энергетиков,55.9989374,93.028796,0,
12367471976,Посёлок Энергетиков,55.9992314,93.0288416,0,
12367471978,Возрождение Кредит,56.0083737,92.9547711,0,
12367471979,Возрождение Кредит,56.0082594,92.954641,0,
12367471980,Краевая детская библиотека,56.0072074,92.9499585,0,
12367471981,Краевая детская библиотека,56.0071017,92.9498157,0,
12367471982,Дом дружбы народов «Родина»,56.0051241,92.9413627,0,
12367471983,Дом дружбы народов «Родина»,56.0050142,92.9412239,0,
12367471984,Торговый центр,56.0024891,92.9304884,0,
12367471985,Торговый центр,56.0023248,92.9301196,0,
12367471986,Монтажный колледж,55.9824424,92.8878473,0,
12367471987,Монтажный колледж,55.9824356,92.8883368,0,
12367471988,Заводская,55.9799821,92.8886358,0,
12367471989,Заводская,55.9805524,92.888955,0,
12367471990,Трамвайное депо,55.9808831,92.8992661,0,
12367471991,Трамвайное депо,55.9809502,92.8992068,0,
12367471992,Культбытстрой,55.9836709,92.9069406,0,
12367471993,Культбытстрой,55.9837103,92.9071974,0,
12367471994,Техникум транспорта и сервиса,55.9858117,92.9149362,0,
12367471995,Техникум транспорта и сервиса,55.985967,92.9153614,0,
12367471996,Школа ДОСААФ,55.9874846,92.9228434,0,
12367471997,Школа ДОСААФ,55.9875615,92.9228809,0,
12367471998,Рембыттехника,55.9887595,92.9276627,0,
12367471999,Рембыттехника,55.9888233,92.9277062,0,
12367472000,Улица Щорса,55.9882093,92.9349529,0,
12367476401,Улица Щорса,55.9883053,92.9347739,0,
12367476402,Автобусный переулок,55.9880957,92.9397815,0,
12367476403,Автобусный переулок,55.9882052,92.9397695,0,
12367476404,Мебельный магазин,55.9887817,92.9426254,0,
12367476405,Мебельный магазин,55.9888619,92.9426361,0,
12367476406,Дом творчества,55.9899474,92.9477558,0,
12367476407,Дом творчества,55.9901522,92.9481581,0,
12367476408,Рынок «Мави»,55.9914214,92.9543158,0,
12367476409,Рынок «Мави»,55.991517,92.9542507,0,
12367476410,Рабочий посёлок,55.9924359,92.9587267,0,
12367476411,Рабочий посёлок,55.9925,92.9587327,0,
12367476412,Стадион «Авангард»,55.9932231,92.9622477,0,
12367476413,Стадион «Авангард»,55.9933738,92.9625897,0,
12367476414,Кинотеатр «Металлург»,55.9950941,92.9706404,0,
12367476415,Кинотеатр «Металлург»,55.9951623,92.9705921,0,
12367476416,Завод «Сибтяжмаш»,55.9993023,92.968677,0,
12367476417,Завод «Сибтяжмаш»,55.9992895,92.9685932,0,
12367476418,Улица Волгоградская,56.0047821,92.9646906,0,
12367476419,Улица Волгоградская,56.0047589,92.9646081,0,
12367476420,Улица Мичурина,56.007763,92.9617643,0,
12367476421,Возрождение Кредит,56.0083332,92.9572803,0,
12367476424,Художественная галерея,56.0111628,92.9666593,0,
12367476425,Художественная галерея,56.011222,92.9666626,0,
12367476426,Аэрокосмическая академия,56.0137129,92.9751941,0,
12367476427,Аэрокосмическая академия,56.0137717,92.9751512,0,
12367476428,ДК «1 Мая»,56.0155,92.9829235,0,
12367476429,ДК «1 Мая»,56.0155941,92.9830872,0,
12367476430,Школа,56.0170386,92.9896733,0,
12367476431,Школа,56.0171563,92.9898624,0,
12367476432,Хлебозавод,56.0189302,92.9978152,0,
12367476433,Хлебозавод,56.0190071,92.9978755,0,
12367476434,Каменный квартал,56.0208959,93.0063352,0,
12367476435,Каменный квартал,56.0210241,93.0065913,0,
12367476436,Улица Крылова,56.0221495,93.0118431,0,
12367476437,Улица Крылова,56.0221465,93.0115233,0,
12367476438,ДК «КрасТЭЦ»,56.0231482,93.0161856,0,
12367476439,ДК «КрасТЭЦ»,56.0233266,93.0165879,0,
12367476440,КрасТЭЦ,56.0246959,93.0216506,0,
12367476441,КрасТЭЦ,56.0250166,93.0230293,0,
489333311,Магазин «Баджей»,56.009551,92.95984285,0,
1308037596,Агентство Аэрофлота,55.9903791,92.88671985,0,
1308037597,Агентство Аэрофлота,55.9903824,92.8869073,0,
1308665732,Предмостная площадь,55.99256796666666,92.88943936666668,0,
1308665733,Предмостная площадь,55.992376533333335,92.88898096666668,0,
1308668674,Юбилейная,55.9943577,92.89718933333332,0,
1308668675,Юбилейная,55.99459613333333,92.89782216666669,0,
1308670958,Цирк,55.996496533333335,92.90565456666668,0,
1308670959,Цирк,55.9961826,92.9047081,0,
1308672189,Затон,55.99851606666667,92.91437706666666,0,
1308672190,Затон,55.9987064,92.91485,0,
1308673480,ТЮЗ,56.00134466666666,92.9257332,0,
1308673481,ТЮЗ,56.00108276666666,92.9250048,0,
1337112385,Магазин «Баджей»,56.01011475,92.9618788,0,
988497496,улица Красномосковская,56.0238555,92.8217447,0,
3704016853,Завод телевизоров,56.023095,92.8027011,0,
4360413186,Сельхозкомплекс,56.0259778,92.7459871,0,
4360413187,Сельхозкомплекс,56.0269645,92.7445446,0,
4360413390,"ОАО ""РУСАЛ""",56.08479,93.0190666,0,
4360413391,"ОАО ""РУСАЛ""",56.0848615,93.0189598,0,
5092111899,Кинотеатр Строитель,56.0325349,92.7743235,0,
5092209851,Почта,56.0270929,92.7798199,0,
5969115535,Театр оперы и балета,56.0087884,92.8718556,0,
5969128857,Стадион Локомотив,56.0131692,92.8645241,0,
5969137804,Площадь Революции,56.0125344,92.8524399,0,
5969149738,улица Республики,56.0143391,92.840833,0,
5969368969,Торговый квартал,56.0212533,92.7991984,0,
5969371703,Торговый квартал,56.0220012,92.8006234,0,
5969437809,Кинотеатр «Ударник»,56.0089922,92.8013853,0,
5969458758,Станция Юннатов,56.0045531,92.8017346,0,
5969748157,ЭВРЗ,56.0142642,92.8377745,0,
5969755897,Бизнес-центр Баланс,56.0187625,92.838087,0,
5969762621,Музыкальный театр,56.0096149,92.8371044,0,
8788544810,Поликлиника (улица Калинина),56.0332203,92.8153517,0,
9090773517,Хлебозавод (улица Семафорная),55.9822284,92.8618967,0,
12133645658,Автотранспортный техникум,56.0379347,92.7885118,0,
12133645659,Автотранспортный техникум,56.0386514,92.7872285,0,
12133645661,Школьная,56.0407956,92.7835829,0,
12133645663,КПАТП-5,56.0427569,92.7800304,0,
12133645664,Миграционный центр,56.0442947,92.7739039,0,
12133645668,Спорткомплекс «Рассвет»,56.0233209,92.7862319,0,
12133645670,ГорДК,56.0195658,92.7926215,0,
12133645671,ГорДК,56.0196419,92.7924912,0,
12133645688,Космос,56.0240121,92.8309531,0,
12133645689,Космос,56.0242356,92.8317146,0,
12134025269,Улица Дубенского,56.0183443,92.897211,0,
12134025270,Медицинский университет,56.025604,92.9055202,0,
12134025287,Станция Красноярск-Северный,56.072569,92.9364415,0,
12134027613,Медицинский университет,56.0234815,92.9045263,0,
12134027637,мкрн. Северный,56.0673762,92.9316014,0,
12135311146,5-й микрорайон (мкрн. Ветлужанка),56.0304234,92.7418877,0,
12135311148,Детский сад (улица Гусарова),56.0309343,92.7518122,0,
12135311149,Универмаг «Ветлужанка»,56.0296718,92.7551413,0,
12135311152,Универмаг «Ветлужанка»,56.028882,92.7551291,0,
12135311153,Поликлиника (ул. Мирошниченко),56.0270577,92.7551645,0,
12135311186,Школа (проспект Свободный),56.023511,92.8104216,0,
12135759927,Агентство Аэрофлота,55.9901977,92.8866061,0,
12135770993,Улица Матросова,55.9873533,92.8871778,0,
12141775514,Экопарк Гремячая грива,56.0036706,92.7676452,0,
12141775515,Экопарк Гремячая грива,56.0033163,92.7669481,0,
12229419348,Полюс,56.0361344,92.7926122,0,
12229419349,Полюс,56.0358063,92.7934663,0,
12229419350,Тарная база,56.0332032,92.8019643,0,
12229419355,Поликлиника (улица Калинина),56.0328778,92.8144934,0,
12229419358,2-я Калинина,56.0343167,92.822649,0,
12229419359,1-я Калинина,56.0348158,92.8285677,0,
12229419361,Дрожжевой завод,56.0317225,92.830584,0,
12229419362,Площадь Изыскателей,56.0253106,92.8324693,0,
12229419363,Площадь Изыскателей,56.0256454,92.8320651,0,
12229420581,Студенческая (улица Семафорная),55.9840922,92.8809236,0,
12229420582,Студенческая (улица Семафорная),55.9838744,92.8787429,0,
12229420583,Улица Семафорная,55.98326,92.8726091,0,
12248571693,Овощной магазин,56.0278626,92.7667136,0,
12255873391,Улица Корнеева,56.0117232,92.8102067,0,
12262775162,Краевая больница,56.0276628,92.9108106,0,
12262775165,Зенит,56.0318946,92.9204625,0,
12262775166,Зенит,56.0322323,92.9208077,0,
12262775171,Улица Краснодарская (проспект Металлургов),56.044532,92.9444937,0,
12262775173,Рынок Кедр,56.0496309,92.9526387,0,
12262775178,Дворец труда (улица Тельмана),56.0502094,92.9573234,0,
12262775186,Гвардейский парк,56.0579551,92.9795142,0,
12262922586,Гвардейский парк,56.0562643,92.9785592,0,
12262922587,ДК «КрАЗа»,56.0542287,92.9764261,0,
12262922590,Дворец труда (улица Тельмана),56.0505891,92.95656,0,
12262922591,Улица Сергея Лазо,56.0467229,92.9477298,0,
12262922592,Улица Краснодарская (проспект Металлургов),56.0438744,92.9431341,0,
12262922593,Авиагородок,56.0416804,92.9393016,0,
12262922600,Краевая больница,56.0275351,92.9100221,0,
12265710828,Улица Кравченко,56.0166008,92.797752,0,
12265710830,Улица Карла Маркса,56.0108721,92.8781349,0,
12265710831,Улица Тельмана,56.0603311,92.9780413,0,
12265710832,Улица Тельмана,56.0611226,92.9768749,0,
12265710834,Интернат,56.0647621,92.976645,0,
12265710835,Сады (пр-т Металлургов),56.067992,92.9822335,0,
12265710837,улица Башиловская,56.0751087,92.9978215,0,
12265710838,улица Башиловская,56.0746649,92.9965574,0,
12265710839,Промбаза,56.0765133,93.0005593,0,
12265710840,Промбаза,56.0767272,93.0013815,0,
12265710841,КраМЗ,56.078806,93.0059263,0,
12265710843,Фабрика,56.0806318,93.0099679,0,
12265710845,Трест КАС,56.0829306,93.0149865,0,
12265710846,Трест КАС,56.0824929,93.0137422,0,
12265795842,Улица Луначарского,56.0134705,92.8033367,0,
12269668960,Улица Краснодарская,56.0451685,92.9411688,0,
12269668963,Улица Ястынская,56.0586137,92.9390047,0,
12269668971,Сады (проспект Свободный),56.0095389,92.7782212,0,
12269668994,Комсомольский проспект,56.0622231,92.9334257,0,
12269668995,Улица Ястынская,56.058511,92.9396836,0,
12269668997,улица Армейская,56.0527783,92.9413344,0,
12269668999,Улица Краснодарская,56.0460263,92.9412033,0,
12271269932,Комбайновый завод,56.0051784,92.8326444,0,
12271377746,ДК Комбайностроителей,56.0075383,92.8368391,0,
12271449695,Улица Курчатова,56.0175187,92.7921841,0,
12367622675,Железнодорожный вокзал,56.005298,92.8313305,0,
293390721,улица Маерчака,56.0228257,92.8351892,0,
358008093,5-й микрорайон (мкрн. Ветлужанка),56.029503,92.7419244,0,
418546602,Студгородок,55.9975438,92.7955086,0,
1226584345,улица Маерчака,56.0234784,92.83471,0,
1380564910,Агропром,56.0120888,92.8440231,0,
2321627444,Почта,56.0267891,92.78033,0,
2531890619,Поворот,56.0242284,92.7573027,0,
3806952374,Утиный плёс,55.9851539,92.8578444,0,
4360170906,Железнодорожный вокзал,56.0054282,92.8314294,0,
4362185439,Предмостная площадь,55.9924272,92.8868313,0,
5092082024,Радиотехнический завод,56.0357634,92.7721965,0,
5092082025,Радиотехнический завод,56.0352078,92.7724379,0,
5092111898,Кинотеатр Строитель,56.0326807,92.7744533,0,
5092508978,Овощной магазин,56.0269532,92.7644142,0,
5969121693,Театр Оперы и балета,56.0090372,92.8715829,0,
5969133646,Театр кукол,56.0127914,92.857543,0,
5969354320,Школа (проспект Свободный),56.0235134,92.8105278,0,
5969359414,Завод телевизоров,56.022605,92.8017421,0,
5969451623,Станция Юннатов,56.0059165,92.801612,0,
5969466386,Поликлиника,56.0012937,92.8002412,0,
5969472402,Студгородок,55.9976892,92.7958335,0,
5969699693,улица Красномосковская,56.0237493,92.8220632,0,
5969781342,Красная площадь,56.0082297,92.8391821,0,
5969781343,Красная площадь,56.0083648,92.8400548,0,
5995936001,Кинотеатр «Ударник»,56.0096071,92.8013316,0,
12133645660,Школьная,56.0399065,92.7850709,0,
12133645662,КПАТП-5,56.0419991,92.7814384,0,
12133645666,Северо-Западный район,56.0392955,92.7695773,0,
12133645667,Северо-Западный район,56.0386389,92.7698535,0,
12133645669,Спорткомплекс «Рассвет»,56.023018,92.7867573,0,
12134025266,Главпочтамт,56.0138033,92.8747495,0,
12134025267,Улица Парижской Коммуны,56.014262,92.88219,0,
12134025268,Сибирский институт искусств,56.0146731,92.8894281,0,
12134025285,мкрн. Северный,56.06695,92.9303398,0,
12134025286,"Улица Шумяцкого, д. 11",56.0704246,92.9318332,0,
12134025288,Станция Красноярск-Северный,56.0722117,92.9359809,0,
12134025290,Дом быта,56.0122086,92.8736198,0,
12134027606,Музей имени Сурикова,56.0110717,92.8823744,0,
12134027607,Гостиница «Октябрьская»,56.0114054,92.8898342,0,
12134027609,Филармония,56.0127527,92.8967438,0,
12134027610,Улица Дубенского,56.0182922,92.8974196,0,
12134027638,"Улица Шумяцкого, д. 8",56.0694204,92.9334328,0,
12135311147,Детский сад (улица Гусарова),56.0309324,92.7503462,0,
12135311155,Поворот,56.0245265,92.7560675,0,
12135759919,Площадь Революции,56.0112152,92.8550592,0,
12135759921,Улица Перенсона,56.0101798,92.8648225,0,
12135759922,Остров Отдыха,55.9968261,92.8788964,0,
12135759923,Остров Отдыха,55.9967098,92.8788133,0,
12135759928,Улица Матросова,55.9870536,92.8868907,0,
12136143350,Школа №147,56.0685618,92.9335639,0,
12229419351,Тарная база,56.033394,92.8012789,0,
12229419352,Таксопарк,56.0322513,92.8069436,0,
12229419353,Таксопарк,56.0320803,92.8080051,0,
12229419357,2-я Калинина,56.0342007,92.8216418,0,
12229419366,Улица Робеспьера,56.0105816,92.8426318,0,
12229419368,Улица Горького,56.0108216,92.8473938,0,
12229420584,Улица Семафорная,55.9833268,92.8733045,0,
12229420585,ЖК Полтавский,55.9852709,92.8651925,0,
12230137718,Дрожжевой завод,56.0311954,92.829983,0,
12230137725,1-я Калинина,56.0353325,92.8297869,0,
12248571691,Кинотеатр Строитель (улица Елены Стасовой),56.0296756,92.7735499,0,
12248571692,Кинотеатр Строитель (улица Елены Стасовой),56.0295589,92.7730667,0,
12255873387,Копыловский мост,56.0124754,92.8245219,0,
12255873388,Копыловский мост,56.0125796,92.824825,0,
12255873389,Сквер А.П. Степанова,56.0116425,92.8144075,0,
12255873390,Сквер А.П. Степанова,56.0125336,92.8155614,0,
12258596584,Театр Пушкина,56.0117017,92.8644086,0,
12262775163,Глазной центр,56.0303847,92.9172949,0,
12262775164,Глазной центр,56.0301363,92.9162827,0,
12262775167,Ледовая арена «Кристалл»,56.0345325,92.925766,0,
12262775168,Ледовая арена «Кристалл»,56.0348382,92.9260055,0,
12262775169,Октябрьский мост,56.0369123,92.9305377,0,
12262775170,Авиагородок,56.0413417,92.9389864,0,
12262775172,Улица Сергея Лазо,56.0466289,92.9478339,0,
12262775179,5-й микрорайон,56.0496486,92.9664138,0,
12262775184,Рынок,56.0509514,92.9712112,0,
12262922585,Улица Новгородская,56.0581414,92.9795237,0,
12262922588,Рынок,56.0505229,92.970159,0,
12262922589,5-й микрорайон,56.0491605,92.9643738,0,
12262922594,Октябрьский мост,56.038856,92.9340159,0,
12265583998,Институт (улица Семафорная),55.9826715,92.8555786,0,
12265710827,Улица Кравченко,56.017025,92.7967614,0,
12265710829,Улица Луначарского,56.0134935,92.8027143,0,
12265710833,Интернат,56.0649092,92.97715,0,
12265710836,Сады (пр-т Металлургов),56.0681954,92.9823683,0,
12265710842,КраМЗ,56.0788039,93.0056247,0,
12265710844,Фабрика,56.0805338,93.0094587,0,
12269668961,Магазин «Металлург»,56.0485871,92.9412509,0,
12269668962,улица Армейская,56.051595,92.9413091,0,
12269668969,Сибирский федеральный университет,56.0046756,92.7696358,0,
12269668970,Сибирский федеральный университет,56.0051481,92.770548,0,
12269668972,Сады (проспект Свободный),56.0090937,92.7774811,0,
12269668993,Улица 9 Мая,56.0650454,92.9289114,0,
12269668996,Военкомат,56.0556867,92.9415763,0,
12269668998,Магазин «Металлург»,56.0500761,92.9412797,0,
12271269933,ДК Комбайностроителей,56.0073939,92.8363941,0,
12271269934,Улица Робеспьера,56.0112543,92.8413992,0,
12271449692,Улица 9 Мая,56.0639572,92.9303274,0,
12271449693,Комсомольский проспект,56.0622199,92.9331188,0,
12271449696,Улица Курчатова,56.0172965,92.7917625,0,
293390815,Бизнес-центр Баланс,56.0198416,92.837914,0,
5092502912,улица Гусарова,56.0262578,92.7627075,0,
12133645665,Миграционный центр,56.0443145,92.7736985,0,
12135311154,Поликлиника (ул. Мирошниченко),56.0277244,92.7551507,0,
12255767749,Улица Корнеева,56.0123869,92.8097696,0,
12262775185,ДК «КрАЗа»,56.0545531,92.9769369,0,
346243738,ЖК «Глобус»,56.0575273,92.7329959,0,
2794005060,Кладбище,56.087921,93.0326204,0,
5790752714,Посёлок Энергетиков (улица Тамбовская),56.0012788,93.0335536,0,
5969022007,ДК КрасТЭЦ,56.023454,93.0169973,0,
5969037771,Каменный квартал,56.0208884,93.0058065,0,
5969053839,ДК «1 Мая»,56.0155482,92.9825397,0,
5969062660,Художественная галерея,56.0116802,92.9683513,0,
5969125597,Улица Марковского,56.0151703,92.8721953,0,
5969577600,Лесная,55.9941967,92.7682072,0,
5969617431,Военный институт,55.9854802,92.7532126,0,
5996178996,Торговый центр,56.0029108,92.9327519,0,
5996187563,Краевая детская библиотека,56.0071495,92.9503036,0,
8006582532,Посёлок Таймыр – Конечная,56.0483606,92.7289263,0,
9073226360,Водолей,56.0202187,93.0361241,0,
9091159072,Лесоперевалочная база,55.9759767,92.8070339,0,
11254561865,Магазин (ж/м Академгородок),55.9861825,92.7613379,0,
12133645692,Сквер «Уют»,56.0228684,92.8395634,0,
12134025263,Переулок Речной,56.0164794,92.8499508,0,
12134025264,Центральный рынок,56.0165577,92.8572905,0,
12134025274,Автотехцентр,56.0431514,92.8982528,0,
12134025294,Стадион «Локомотив» (ул. Перенсона),56.0144824,92.8663314,0,
12134027635,Магазин (улица Светлогорская),56.067649,92.9197269,0,
12135311108,Березовая,56.0202233,92.7299864,0,
12135759931,Художественное училище (улица 60 лет Октября),55.9804684,92.8810211,0,
12135759932,Пикра,55.9799629,92.8750007,0,
12135759939,Библиотека для слепых,55.9772581,92.8499333,0,
12229419346,Пожарная часть,56.0497132,92.7626139,0,
12229420587,Утиный плёс,55.9851583,92.8589342,0,
12229420589,Пашенный,55.9845001,92.8509559,0,
12229420593,Школа,55.9819867,92.8329515,0,
12230137729,Пожарная часть,56.0500557,92.7615883,0,
12230137732,Школьный городок,56.0549988,92.7393614,0,
12248540542,Улица Авиаторов,56.0479667,92.9137316,0,
12248540564,Платинум Арена,55.9809581,92.8081621,0,
12255767731,Улица Транзитная (улица Павлова),55.9907778,92.9323801,0,
12255885002,Улица Луначарского,56.0135063,92.8010148,0,
12255904708,Спорткомплекс «Сибиряк»,56.0229865,92.813041,0,
12262775142,ул. 2-я Брянская,56.0408385,92.8569603,0,
12262775147,Автоцентр,56.0431209,92.8704686,0,
12262775157,Улица Мужества,56.0337078,92.8859819,0,
12262775161,Подстанция,56.0389435,92.9003114,0,
12269525666,Бульвар Ботанический,56.0412989,92.7506348,0,
12269668978,Енисейский рынок,56.0374598,92.8924001,0,
12269668987,Ледовый дворец,56.0490063,92.8952631,0,
12269668992,Улица Шумяцкого,56.0650048,92.937619,0,
12289981005,Школа глухонемых,55.9904255,92.7431147,0,
12289981011,переулок Послушников,55.981974,92.7404943,0,
12289981017,Санаторий,55.9824532,92.7181564,0,
12290135139,Молодёжная,56.0549873,92.6998618,0,
12290135180,Бадалык,56.0933338,92.9331742,0,
12290135187,Центр «Эдельвейс»,56.1117868,92.9152968,0,
12290135190,4-ый микрорайон,56.1132829,92.918242,0,
12291632767,улица Пастеровская,56.0082582,92.805862,0,
12327466001,Улица 10-я Продольная,56.034755,92.8502014,0,
12327466015,Улица Шахтёров,56.0278551,92.8884506,0,
12329600302,2-я улица Суворова,55.9896045,92.9951935,0,
12330914766,ХМЗ,55.9800681,92.8877607,0,
12330914770,Металлистов,55.9734834,92.8878223,0,
12330914779,Улица Братская,55.9702711,92.9199654,0,
12339948527,Верхние Черёмушки,55.9836686,93.0167467,0,
12339948532,Старые Черёмушки,55.9901913,93.0202627,0,
12339948538,Поликлиника (улица Львовская),55.9987624,93.0123602,0,
12339948540,Улица Волжская,55.9999065,93.0170934,0,
12339948544,Улица Львовская,56.0024442,93.0273257,0,
12339948551,Улица Парижской Коммуны,56.0126786,92.8822702,0,
12340783601,Улица Полигонная,56.0728791,92.9470784,0,
12340783614,Дом творчества,55.9900924,92.9486689,0,
12343099037,Лесная,55.994132,92.7679959,0,
12343099040,Военный институт,55.98549,92.7533412,0,
12343368494,Проходная,56.0373023,93.0385503,0,
12343368500,Каштак,55.9713369,92.7849196,0,
12343374003,Новостройка (ул. Свердловская),55.9707387,92.7739299,0,
12343458003,9-й микрорайон,56.0579864,92.952225,0,
12346454930,Улица Терешковой,56.0546277,92.9713104,0,
12346580386,мкрн. Иннокентьевский,56.0515455,92.9222432,0,
12346580388,Улица Молокова,56.0477091,92.9177611,0,
12346602120,Дымов,56.0712764,92.945304,0,
12346626733,Гортоп,56.0856376,93.0614791,0,
12346626739,Кладбище,56.0878696,93.0327116,0,
12348483480,Улица Затонская,55.9984502,92.9225681,0,
12350955511,"Улица Светлова, д.25",56.1179919,92.9140516,0,
12363024069,Автоцентр,56.0434629,92.8728055,0,
12365663807,Станция Базаиха,56.0234401,93.0617713,0,
12365663818,Почта (улица Парашютная),55.9734924,92.8634623,0,
12365748330,АЗС (улица Пограничников),56.0914867,93.0351998,0,
12365748332,ООО «Сегал»,56.0958964,93.0526829,0,
12365748339,Пожарная часть (улица Пограничников),56.1058109,93.073018,0,
12365805383,Простоквашино,56.1059092,92.9166749,0,
12365942150,Сплавконтора,55.966786,92.7937013,0,
520147683,пос. ГЭС,56.0412828,92.7463035,0,
3158893382,Юбилейная,55.9944785,92.8970823,0,
4360235813,БСМП,56.0188123,92.7718729,0,
5579379247,Возрождение кредит (улица Московская),56.0065288,92.9564189,0,
5969377584,Комсомольская прощадь,56.0190293,92.7983663,0,
5969576360,Институт,55.9918128,92.7609914,0,
5969907843,Петрушина,56.1193913,92.9365072,0,
5996205248,ДК «1 Мая»,56.0153332,92.9825235,0,
9079035013,Библиотека,55.987462,92.9005118,0,
9081990051,Улица Глинки,56.0218518,93.0477302,0,
9081990053,База Ленторга,56.0209346,93.038156,0,
9084123381,Столовая (ул. Затонская),55.9783355,92.9373527,0,
9084185335,Посёлок Водников,55.9708981,92.9383547,0,
9084341705,Образцово,55.9902265,92.9875552,0,
9084341709,Вторчермет,55.9923845,92.9982418,0,
11724136220,Академгородок (конечная),55.9878939,92.7730286,0,
12071656273,Спорткомплекс Радуга,56.0114232,92.7258,0,
12133645679,АТС,56.0178703,92.8063267,0,
12133645691,улица Северная,56.023277,92.8379337,0,
12134025293,Педагогический университет,56.0155409,92.8616376,0,
12134027619,Школа искусств,56.0406467,92.903673,0,
12134027630,1-й микрорайон,56.0592928,92.9123793,0,
12134027632,Светлогорский переулок,56.0623949,92.9073496,0,
12134027634,Улица Урванцева (улица Светлогорская),56.0661817,92.9150504,0,
12135311164,Госпиталь инвалидов ВОВ (улица Сады),56.019113,92.7657808,0,
12135759925,ОАО «Красфарма»,55.9759177,92.8378505,0,
12135759929,Студенческая (улица Свердловская),55.9835249,92.8836322,0,
12135759949,Афонтово,55.9782495,92.8597312,0,
12248540535,Дом Куприяна,56.0557892,92.9086484,0,
12255767716,Улица Волгоградская,56.004476,92.9645937,0,
12269525669,Бульвар Ботанический,56.041074,92.7549506,0,
12269668984,Улица Караульная,56.046005,92.8863105,0,
12289972797,Городок,56.0453995,92.9127656,0,
12289981004,Школа глухонемых,55.9902157,92.7427333,0,
12289981018,Санаторий,55.9825168,92.7189277,0,
12289981028,Совхоз Удачный,55.9760813,92.6613846,0,
12290135167,Тихий квартал,56.05602,92.7123988,0,
12290135168,Тихий квартал,56.0560355,92.7112675,0,
12290135170,Детский центр,56.0562871,92.7199455,0,
12290135174,База КПС,56.0795678,92.9355904,0,
12290135185,ЖК «Снегири»,56.1071815,92.9103634,0,
12327395360,Арена-Север,56.051922,92.895378,0,
12327395366,Полигон,55.9668833,92.9610684,0,
12327395370,Сады (Полигон),55.962536,92.9636218,0,
12327430198,Улица 5-я Полярная,56.0312246,92.8720625,0,
12327500013,Сады (пос. Овинный),56.0474191,92.7153444,0,
12329570968,Шинный завод,56.0125723,93.0316054,0,
12329600310,Гараж (улица Мичурина),55.9865461,92.9775485,0,
12330914768,Рембыттехника (улица Лесопильщиков),55.9770495,92.881952,0,
12330914772,ТЭЦ-2,55.9734901,92.8971532,0,
12330914793,"Магазин ""Наш двор""",55.9709844,92.9465776,0,
12339948546,20-я больница,56.0159108,92.9704372,0,
12339948550,Нефтебаза,56.0145389,92.9552701,0,
12340384519,Дворец труда,56.0527609,92.9576599,0,
12340384539,Улица Ольховая,56.1082127,92.9005282,0,
12340384544,Школа №156,56.1118054,92.9031845,0,
12340783609,Рабочий посёлок,55.9925968,92.9597983,0,
12343256310,"Завод ""СибТяжМаш"" (ул. Павлова)",55.9997152,92.9696766,0,
12343256313,Церковь,56.0012029,93.049197,0,
12343256325,Северная,56.0066337,93.0468432,0,
12343256329,Черёмушки,56.0004896,93.0341423,0,
12343256330,Почта (улица Шевченко),55.9980033,93.0312436,0,
12343368481,Причал,56.0582242,93.0142109,0,
12343368492,Биохимзавод,56.0418502,93.0303169,0,
12343368498,Талнах,55.9742584,92.7965184,0,
12343374009,Сад Крутовского,55.9693718,92.7546173,0,
12343458004,Магазин Электротехника,56.0572164,92.9494117,0,
12343458013,Енисейский торговый дом,56.0337612,92.9133028,0,
12345958052,ДК «Кировский»,55.9847776,92.9410979,0,
12345958055,Улица 40 лет Победы,56.1155159,92.9331938,0,
12346454949,Индустриальный техникум,56.0526428,92.9720421,0,
12346602134,Улица Желябова,56.0271101,92.8764441,0,
12346602135,Улица Желябова,56.0271223,92.8767557,0,
12346626720,Магазин (деревня Песчанка),56.0826935,93.0808124,0,
12361788239,Рембыттехника (улица Затонская),55.9866092,92.9308554,0,
12363024063,ЖК «Квадро»,56.0444829,92.8777149,0,
12363024065,Улица Караульная,56.045677,92.8840503,0,
12365663819,Почта (улица Парашютная),55.9735703,92.864313,0,
12365663826,Стоматология (улица Парашютная),55.9755457,92.8718493,0,
12365663829,ГАПО-2,55.9759897,92.8764302,0,
12365663836,Поликлиника (улица Саянская),55.9737091,92.8409288,0,
12365748333,ООО «Сегал»,56.0956302,93.0508899,0,
12365805375,Улица Березина (улица Шахтёров),56.0317823,92.8903303,0,
12365942134,"СНТ ""Такмак""",55.9626299,92.8207705,0,
358000262,Гастроном,55.9964554,92.7911474,0,
2125985580,Улица Батурина,56.0383011,92.9059605,0,
3285439299,Хлебозавод (улица Свердловская),55.9816369,92.8640374,0,
3401667819,Детская библиотека «Жар-птица»,56.1097788,92.9125087,0,
5969049624,Школа,56.0170976,92.989318,0,
5969576985,Гремячий лог,55.9944902,92.7729505,0,
5969599709,Центр социальной защиты,55.9857979,92.7570347,0,
5996147181,Юбилейная,55.9945506,92.8981801,0,
8856293608,Бадалык,56.0927528,92.93347,0,
9091159069,"Улица Свердловская, д. 73",55.9774906,92.8292956,0,
9091159073,Лесоперевалочная база,55.9760399,92.8080984,0,
10957498117,Радиостанция,55.9799033,92.6888701,0,
12133490899,Микрорайон Звездный,56.054424,92.9181513,0,
12134027616,Междугородный автовокзал,56.0313379,92.9079709,0,
12135311111,Рябиновый сад,56.021939,92.7424882,0,
12135311116,Снежная улица,56.0223834,92.7454703,0,
12135759936,Хлебозавод,55.9785465,92.8626177,0,
12135759945,Медицинский переулок,55.9764939,92.8435331,0,
12135759947,Библиотека для слепых,55.9770505,92.8480026,0,
12229419343,Стела «Октябрьский район»,56.0532286,92.7497175,0,
12230137726,АЗС (улица Калинина),56.0482103,92.769518,0,
12248540548,Поликлиника,56.012017,92.9592536,0,
12255767718,Детский Кинотеатр «Мечта»,55.994534,92.971781,0,
12255767736,Техникум транспорта и сервиса,55.9861722,92.9152287,0,
12258596581,Поликлиника,56.0014723,92.8003645,0,
12262775150,Детский сад №49,56.0400837,92.8717478,0,
12262775158,Улица Мужества,56.0337466,92.8875637,0,
12262951002,Подстанция,56.0383502,92.8987734,0,
12269525667,Северо-Западный район,56.0397128,92.7681483,0,
12269525671,пос. Таймыр,56.0440986,92.7366454,0,
12269525672,пос. Таймыр,56.0439841,92.7367236,0,
12289981009,1-й дом отдыха,55.9826471,92.7333567,0,
12289981025,улица Кипрейная,55.9792763,92.6845384,0,
12290135169,Детский центр,56.0563195,92.7211211,0,
12290135186,Детская библиотека «Жар-птица»,56.1101661,92.9129827,0,
12290135192,мкрн. Солнечный,56.1170139,92.9299464,0,
12291632760,улица Радищева,56.0037112,92.8070561,0,
12327395363,Детская поликлиника (улица Монтажников),55.9852177,92.9477408,0,
12327395376,Сады-2 (Полигон),55.9588979,92.9647266,0,
12327395377,Полигон (Конечная),55.9518904,92.9682282,0,
12327460399,Железнодорожная больница,55.995267,92.8140879,0,
12327466005,Улица Водянникова,56.032918,92.8609035,0,
12327466008,Улица Березина,56.0306589,92.8809502,0,
12327466009,Улица Березина,56.0306985,92.8820066,0,
12327466012,Росгеология,56.0301137,92.8995239,0,
12327466019,Химчистка,56.0147267,92.8758767,0,
12327500021,Сады-2 (пос. Овинный),56.0404498,92.6747092,0,
12329570958,Улица Мичурина (улица Московская),56.0077525,92.9615828,0,
12329570963,Поликлиника (улица 26 Бакинских комиссаров),56.0245394,93.0160055,0,
12329570973,Кинотеатр «Звёздный»,55.9984977,93.0248584,0,
12329570981,Поликлиника (улица Волжская),55.9956246,93.0132522,0,
12329570994,Кафе «Заря»,55.9919666,93.0050595,0,
12329600305,Магазин (улица Суворова),55.9871872,92.9848665,0,
12329600316,Городской архив,55.9987556,92.9340989,0,
12330914755,Енисейский рынок (улица Мартынова),56.0384965,92.8881534,0,
12330914788,Улица Тимошенкова,55.9683883,92.9346687,0,
12330914791,Молодёжный центр,55.9700351,92.9422759,0,
12339948539,Поликлиника (улица Львовская),55.9982025,93.0102393,0,
12340384518,Дворец труда,56.0523018,92.9566501,0,
12340384520,3-й микрорайон,56.0560443,92.9629056,0,
12340384526,Улица Ястынская,56.0637315,92.9524904,0,
12340384528,11-й микрорайон,56.0619313,92.9489185,0,
12340384532,ЖК «Снегири»,56.1065356,92.9100494,0,
12340384547,Улица Соколовская,56.113844,92.9059339,0,
12340783613,Рынок «Мави»,55.9914215,92.9545213,0,
12340783616,Мебельный магазин,55.9890707,92.9430563,0,
12343099038,Магазин (ж/м Академгородок),55.9861708,92.7612572,0,
12343256345,Станция Злобино,55.9957407,92.9525953,0,
12343458005,Магазин Электротехника,56.0568178,92.9479367,0,
12343458014,Енисейский торговый дом,56.0337608,92.911554,0,
12346602128,Улица Герцена,56.0269134,92.8695128,0,
12346626710,Деревня Песчанка,56.0796068,93.0921688,0,
12348483488,мкрн. Верхняя Базаиха,56.0195362,93.0648744,0,
12348483489,Северная,56.0051218,93.0458316,0,
12350955506,Академгородок,55.9860027,92.7627168,0,
12350955512,"Улица Светлова, д.25",56.1184481,92.9135839,0,
12365663808,Афонтово (Медицинский переулок),55.973173,92.8545086,0,
12365748325,Автобусный переулок (улица Щорса),55.9882335,92.9390783,0,
12365748327,Улица Транзитная,55.989643,92.9310058,0,
12365805376,4-й микрорайон (улица Славы),56.1122524,92.9208787,0,
12365942132,"Столбы ""Восточный вход""",55.9541253,92.8198112,0,
4336496712,Спортзал,56.060182,92.9865752,0,
4360235814,БСМП,56.0194015,92.7723838,0,
5969073461,Дом дружбы народов «Родина»,56.0053206,92.9419751,0,
5969655035,Николаевская слобода,56.0148084,92.8132387,0,
5969659249,Николаевская слобода,56.0139674,92.813307,0,
5969686319,АТС,56.0178102,92.8048372,0,
5969926471,мкрн. Солнечный,56.1173767,92.9304376,0,
6007817352,деревня Бадалык,56.0991227,92.9266841,0,
9084123406,Лицей «Перспектива»,55.9872029,92.9510465,0,
9084341699,Метро,55.9888592,92.9806495,0,
9084341701,Метро,55.9890907,92.9817848,0,
9091159070,Магазин (улица Свердловская),55.9770767,92.8231906,0,
11254533019,Дом ученых,55.9851757,92.7496972,0,
12134025282,Хутор,56.0644937,92.9088244,0,
12134025284,Общежитие (Комсомольский проспект),56.0673055,92.9252993,0,
12134027617,Улица Аэровокзальная,56.0280519,92.9075192,0,
12134027618,Детский центр,56.0358302,92.908792,0,
12134027624,Аптека (ул. Молокова),56.0422538,92.9068335,0,
12229420590,Пашенный,55.9843444,92.8498309,0,
12248540550,Улица Мичурина,56.0082128,92.9621651,0,
12248540559,Октябрьская (улица Свердловская),55.979897,92.8511665,0,
12248540563,ОАО «Красфарма» (улица Свердловская),55.9782042,92.8357205,0,
12255767717,Завод «СибТяжМаш»,55.9984399,92.9690032,0,
12255767725,Автобусный переулок,55.9898631,92.9408845,0,
12255810126,КрасТЭЦ,56.0236169,93.022689,0,
12258596587,Культбытстрой,55.9839683,92.9043746,0,
12269525668,Магазин Локомотив,56.0407162,92.7621157,0,
12269668964,Школа (улица Шумяцкого),56.068519,92.9348875,0,
12269668974,Улица Мартынова,56.0382162,92.8782624,0,
12269668989,ТРЦ Планета (улица 9 Мая),56.052262,92.9016802,0,
12289981023,Радиостанция,55.9805657,92.691218,0,
12290135165,Улица Норильская,56.0555345,92.7057699,0,
12290135177,Кладбище Бадалык,56.0847976,92.9330722,0,
12290135191,Рынок,56.1159284,92.9266281,0,
12304017477,Полигон,55.9670131,92.9611291,0,
12327395361,Центральный рынок Советского района,56.0347702,92.9198771,0,
12327466007,Библиотека имени К.Г. Паустовского,56.0330281,92.8710148,0,
12327500009,Комбайновый завод,56.0050562,92.8325539,0,
12327500012,Сады (пос. Овинный),56.0471956,92.713593,0,
12329570959,Переезд,56.0329725,93.0380415,0,
12329570961,посёлок Технический,56.0330643,93.0318454,0,
12329570971,Посёлок Энергетиков (улица Тамбовская),56.0018606,93.0340566,0,
12329570972,Кинотеатр «Звёздный»,55.9987626,93.0259167,0,
12329600306,Магазин (улица Суворова),55.9872803,92.9852339,0,
12329600321,Магазин (улица Суворова),55.9959672,92.9242304,0,
12330914761,Федеральное БТИ,56.0337648,92.8968018,0,
12330914763,Междугородный автовокзал (улица Взлетная),56.0337688,92.9026383,0,
12336541200,Пионерский лагерь «Салют»,56.0224763,92.7129931,0,
12339948541,Улица Волжская,55.999446,93.0152109,0,
12339948545,Улица Львовская,56.0024155,93.0272887,0,
12339948548,Улица Крайняя,56.016677,92.9636522,0,
12339948549,Улица Крайняя,56.0171552,92.9662865,0,
12340783606,Стадион «Авангард»,55.9932536,92.9617951,0,
12340783607,Стадион «Авангард»,55.993712,92.9646314,0,
12340783610,Рабочий посёлок,55.9925387,92.9585953,0,
12340783612,Рынок «Мави»,55.9914046,92.9535184,0,
12343256316,пос. Шинников,56.0028762,93.049563,0,
12343256318,Улица Борисевича,56.0055356,93.0538529,0,
12343256349,Универсам,55.9930103,92.9416487,0,
12343368487,2-я Фестивальная,56.0530694,93.0187146,0,
12343368489,1-я Фестивальная,56.0507831,93.0180723,0,
12343368499,Базаиха,55.9727543,92.7913603,0,
12343374002,Больница (улица Свердловская),55.9710205,92.7802591,0,
12343374010,Сад Крутовского,55.9695395,92.7556312,0,
12343374011,Турбаза,55.9682913,92.7441302,0,
12343458008,Кода Медистал,56.0430206,92.9098329,0,
12343458010,Аптека,56.0402007,92.9143225,0,
12345958054,Больница,56.115901,92.9345555,0,
12346580396,АЗС,56.0916304,93.0321996,0,
12346602125,Улица Каховская,56.0267107,92.8622655,0,
12346602129,Улица Герцена,56.0268894,92.8685687,0,
12346602138,Улица Линейная,56.0272369,92.8802259,0,
12346626717,Деревня Песчанка-3,56.0816301,93.0845346,0,
12346626729,Деревня Песчанка,56.0845707,93.0714208,0,
12350878873,Стоматология (Ульяновский проспект),56.0467336,92.9733721,0,
12350878875,Медицинский центр,56.0483796,92.9771456,0,
12350878876,Медицинский центр,56.0483399,92.9771183,0,
12350955505,Академгородок,55.9859544,92.7618271,0,
12350955508,Сквер имени Бориса Ряузова,56.1198134,92.9287459,0,
12365748336,Кирпичная,56.1021164,93.0658697,0,
12365942137,Посёлок Базаиха,55.9670314,92.8150122,0,
12365942149,Канатная дорога,55.9650276,92.7952936,0,
12365942155,Родник,55.9676394,92.789916,0,
762983482,пос. Шинников (конечная),55.9980879,93.0566691,0,
4048848520,Базаиха,55.9732977,92.7932629,0,
5117232190,Магазин Локомотив,56.0413115,92.7593236,0,
5969057191,Аэрокосмическая академия,56.013797,92.9750342,0,
5969067987,Возрождение кредит,56.0088276,92.9563847,0,
5996152910,Правый берег,55.9954397,92.9017968,0,
5996160144,Цирк,55.9966835,92.9070273,0,
5996168378,Затон,55.9987081,92.9153565,0,
5996180758,Дом дружбы народов «Родина»,56.0048467,92.9407001,0,
9078875936,Рынок (улица 26 Бакинских комиссаров),56.0288677,93.0204013,0,
9078875938,Гостиница «Кедр»,56.0275682,93.0190807,0,
9084123390,Пос. Монтажников,55.9812308,92.9496112,0,
9084123412,Больница (улица Кутузова),55.9890024,92.9557339,0,
9084123414,Больница (улица Кутузова),55.9885782,92.9549975,0,
9084231662,Аптека (улица Тимошенкова),55.9718526,92.942529,0,
9084341707,Вторчермет,55.992109,92.9969467,0,
9096977563,Агротерминал,56.0750608,92.9609658,0,
12133645657,ул. Цимлянская (конечная),56.0384511,92.7924318,0,
12133645690,улица Северная,56.0246932,92.836321,0,
12134027622,Улица Алексеева,56.0485778,92.9075374,0,
12135311176,Улица Крупской,56.0223766,92.7808667,0,
12135759940,Медицинский переулок,55.9767163,92.8439634,0,
12229419337,Западный микрорайон,56.0592532,92.7259663,0,
12229419340,ЖК «Глобус»,56.0571303,92.7338344,0,
12248540536,Дом Куприяна,56.0555576,92.9078023,0,
12248540539,Планета,56.0510728,92.9107719,0,
12248540544,Октябрьская,56.0377607,92.9310605,0,
12255767724,Оптика,55.9873458,92.9426664,0,
12262951005,Поликлиника №5,56.0389898,92.871762,0,
12269668973,БСМП (улица Курчатова),56.0177958,92.7718678,0,
12269668979,Южный рынок,56.0408556,92.8929341,0,
12289972793,Сосны,55.9814976,92.7055339,0,
12289972795,1-й дом отдыха,55.9825667,92.7336428,0,
12289981003,Николаевская сопка,55.9976503,92.7559837,0,
12289981016,станция Южная,55.9829882,92.727764,0,
12303884092,мкрн. Преображенский (конечная),56.0610998,92.8939026,0,
12327466004,Улица 2-я Продольная,56.0349837,92.8576118,0,
12327466017,Улица Игарская,56.0195913,92.8788035,0,
12329570960,Переезд,56.0329764,93.0375963,0,
12329570978,Улица Волжская (улица Говорова),55.9971615,93.0196057,0,
12329570992,Школа (улица Аральская),55.9884522,93.0080328,0,
12329570993,Кафе «Заря»,55.9916731,93.0056396,0,
12329600311,Улица Корнетова,56.0036533,92.9534807,0,
12329600317,Городской архив,55.9984011,92.932311,0,
12329600324,Городской архив,55.992089,92.9216416,0,
12330914777,Посёлок Цементников (магазин),55.9698215,92.9143504,0,
12339948534,Офсет,55.9950649,93.0028382,0,
12339948542,Диагностический центр,56.0008591,93.0210813,0,
12339948547,20-я больница,56.0156063,92.9703925,0,
12340649097,БигСи,56.0724417,92.9434755,0,
12340783615,Дом творчества,55.9900667,92.9475605,0,
12343256319,Улица Борисевича,56.0049109,93.053336,0,
12343256331,Почта (улица Шевченко),55.9983524,93.0315507,0,
12343256335,Универмаг «Амурский»,55.9964624,93.0281448,0,
12343256336,Школа №100,55.9939253,93.023687,0,
12343256341,Поликлиника (улица Павлова),55.9990815,92.9668063,0,
12343256342,Поликлиника (улица Павлова),55.9989069,92.9660515,0,
12343368490,Улица Рейдовая,56.043206,93.0216744,0,
12343373600,10-й микрорайон,56.0597434,92.9583297,0,
12343374005,Почта (улица Свердловская),55.9705026,92.768534,0,
12345958053,Больница,56.1156232,92.9348506,0,
12345958057,Посёлок Инициаторов,55.9939186,93.0053591,0,
12345958059,Улица 4-я Шинная,56.0018302,93.0419508,0,
12346580387,Улица Молокова,56.049513,92.9209677,0,
12346602105,"СНТ ""Алюминий""",56.0726078,92.9727983,0,
12346602124,Улица Зои Космодемьянской,56.0294861,92.8608066,0,
12346626726,Школа (деревня Песчанка),56.0838625,93.0764409,0,
12350955513,ПТУ №85,56.1199427,92.9170534,0,
12350955516,Стадион (улица Светлова),56.1216633,92.9221993,0,
12361788243,Мостоотряд (улица Энергетиков),56.0064662,93.0341782,0,
12362984801,Переезд (улица Кразовская),56.1034941,93.0243132,0,
12362984809,Улица Джамбульская,56.0632678,92.9800232,0,
12365663809,Афонтово (Медицинский переулок),55.9732392,92.8506115,0,
12365748328,Детская поликлиника (улица Гладкова),55.9877573,92.8787258,0,
12365748331,АЗС (улица Пограничников),56.091254,93.0338475,0,
12365805377,4-й микрорайон (улица Славы),56.111947,92.9212521,0,
12365942154,Фанпарк Бобровый Лог,55.964682,92.7924716,0,
415938363,улица Счастливая,55.9778543,92.6715811,0,
433985459,пос. Энергетиков (конечная),56.0039423,93.0234743,0,
2554323793,Спортзал,56.0594609,92.9855155,0,
3632488588,Улица Даурская,55.98188,93.0122253,0,
5092472313,Мемориал,56.0222285,92.8852604,0,
5104925405,ТЮЗ (улица Вавилова),55.9975452,92.9281085,0,
5969575784,Гремячий лог,55.9945596,92.774589,0,
5981213463,Школа №144,56.1080396,92.9197941,0,
5996193833,Возрождение Кредит,56.0082961,92.9550416,0,
5996197266,Художественная галерея,56.0111226,92.9667606,0,
5996201339,Аэрокосмическая академия,56.0136115,92.9750049,0,
6123310271,Улица Менжинского,56.0170403,92.8230854,0,
8348314585,ГПТУ,56.0161952,92.7820558,0,
9073226363,Улица Глинки,56.0219009,93.0498239,0,
9079035015,Улица Корнетова,56.0038759,92.9543434,0,
9084185328,Водокачка,55.9734593,92.9365344,0,
9084345024,Детский Кинотеатр «Мечта»,55.9948196,92.9718485,0,
12133645682,Улица Новосибирская,56.0182312,92.8153593,0,
12134027631,Улица Водопьянова,56.060889,92.9097961,0,
12135311114,Рябиновый сад,56.0217541,92.7411891,0,
12135311156,Поворот,56.0237374,92.7550431,0,
12229419336,Озеро-парк,56.0602933,92.7208226,0,
12248540541,"Улица Авиаторов, д. 29",56.0436187,92.9207679,0,
12248540545,Октябрьская,56.0377339,92.9305434,0,
12248540556,Художественное училище,55.983044,92.8786165,0,
12248540557,Юбилейная (улица Свердловская),55.9805587,92.8574517,0,
12255767726,Автобусный переулок,55.9905129,92.9404267,0,
12255810127,КрасТЭЦ,56.0227811,93.0238032,0,
12258596593,Завод «СибТяжМаш»,55.9979441,92.9706248,0,
12262775131,Парк Прищепка,56.0190283,92.7502455,0,
12262775149,мкрн. Яблони,56.0419662,92.8644299,0,
12262775153,Улица 4-я Дальневосточная,56.0358282,92.8718314,0,
12262775154,7-й микрорайон,56.0335748,92.8718658,0,
12265618453,Спортзал,56.0596389,92.9847605,0,
12269668991,Улица Шумяцкого,56.0643727,92.937578,0,
12289972790,улица Кипрейная,55.9793065,92.6847636,0,
12290135189,4-ый микрорайон,56.1138499,92.9203558,0,
12291632756,Улица Семафорная,55.9831483,92.8713645,0,
12291632762,Институт (улица Семафорная),55.9840293,92.8548525,0,
12292507809,Академия Биатлона,55.9968279,92.7364677,0,
12304017474,Выставочно-деловой центр Сибирь,56.0392236,92.9249199,0,
12304017479,Сады (Полигон),55.9625778,92.9635968,0,
12327395358,мкрн. Преображенский,56.058345,92.8977384,0,
12327466011,Мехзавод,56.0308584,92.8886882,0,
12327466016,Площадь Победы,56.0248958,92.8861576,0,
12329570964,Поликлиника (улица 26 Бакинских комиссаров),56.0239058,93.0153601,0,
12329570989,Столовая,55.9890208,93.0153121,0,
12329600314,Улица Шелковая,55.9998652,92.939399,0,
12330914753,Кардиоцентр,56.0478447,92.8826609,0,
12330914771,Металлистов,55.9734985,92.8886481,0,
12330914774,СУ ТЭЦ-2,55.9734869,92.9033462,0,
12330914775,СУ ТЭЦ-2,55.9738705,92.9060517,0,
12330914787,Садовая,55.9672747,92.929294,0,
12336541199,Пионерский лагерь «Салют»,56.0230758,92.7128738,0,
12339948537,Райсобес,55.9970826,93.0056239,0,
12340384521,3-й микрорайон,56.0557618,92.9622048,0,
12340384529,Магазин «Д.Люкс»,56.0599111,92.9449862,0,
12340384530,Магазин «Д.Люкс»,56.0602823,92.9457085,0,
12340384536,Улица Гриболевская,56.1057391,92.9008091,0,
12340384540,Улица Ольховая,56.1076742,92.9004003,0,
12340649099,Красноярская продовольственная компания,56.0774359,92.9557823,0,
12343256327,Улица 2-я Шинная,56.0021966,93.0395138,0,
12343256344,Дворец молодежи,55.997209,92.9586805,0,
12343368491,Улица Рейдовая,56.0428963,93.0218167,0,
12343368496,ДОК,55.9755741,92.803001,0,
12343374001,Больница (улица Свердловская),55.9711049,92.7822424,0,
12345958058,Посёлок Инициаторов,55.9935257,93.0034922,0,
12346454942,Посёлок Водников,55.970325,92.9501831,0,
12346454947,Гараж,56.0561061,93.0211232,0,
12346454952,мкрн. Метростроитель,56.0695297,92.9258122,0,
12346454953,мкрн. Метростроитель,56.0698314,92.9268157,0,
12346580395,АЗС,56.0916014,93.0322411,0,
12346580398,КРССУ,56.0897062,93.0298803,0,
12346602139,Улица Линейная,56.0272515,92.8806704,0,
12346626718,Деревня Песчанка-3,56.0815924,93.0846643,0,
12350878879,Улица Комарова,56.0484984,92.9697093,0,
12350955510,Молодёжный проспект,56.1198567,92.9245957,0,
12350955528,мкрн. Солнечный (улица Светлова),56.1216899,92.9265583,0,
12362903096,ИТК,56.1083598,93.0357993,0,
12365663816,Улица Парашютная,55.9731995,92.858119,0,
12365748329,Детская поликлиника (улица Гладкова),55.9881103,92.8794094,0,
12365748337,Кирпичная,56.1019443,93.0655477,0,
12365805372,Слобода Весны,56.0440027,92.8976369,0,
12365805384,Простоквашино,56.1063548,92.915099,0,
12365942146,Школа (улица Базайская),55.9640329,92.8011786,0,
12365942152,Сплавконтора,55.9681844,92.7933834,0,
1280859608,Плодово-ягодная станция,56.0261404,92.7075937,0,
5969070590,Краевая детская библиотека,56.0070401,92.9490734,0,
5996173785,ТЮЗ,56.0012855,92.9260384,0,
5996225590,Улица Крылова,56.0221219,93.0119289,0,
5996229962,ДК КрасТЭЦ,56.0236012,93.0184145,0,
8407060918,Контейнерный двор,56.0249412,93.0669113,0,
8846595082,Улица Урванцева (улица Светлогорская),56.0660364,92.9138532,0,
8919507288,улица Живописная,55.9808864,92.6961016,0,
9078875939,"ДК ""Химик""",56.0309222,93.0232052,0,
9081990050,Новая Базаиха,56.0222154,93.0531526,0,
9084123388,Пос. Монтажников,55.9814754,92.9498508,0,
9084123410,Улица Котовского,55.9896914,92.9585854,0,
12115290464,Улица Московская,56.00805,92.9628447,0,
12133645693,улица Красной Гвардии,56.0223504,92.8415937,0,
12133645696,Физкультурный техникум,56.0181306,92.8435914,0,
12134025275,Школа (улица Алексеева),56.0463882,92.9024838,0,
12134027629,Медицинский центр (улица Водопьянова),56.0567816,92.9164629,0,
12134027636,Общежитие (Комсомольский проспект),56.0665812,92.9260865,0,
12135311103,Стадион,56.0185778,92.727948,0,
12135311174,Улица Крупской,56.0221177,92.7803738,0,
12230137730,ДРСУ,56.0515101,92.7551462,0,
12230137731,Стела «Октябрьский район»,56.0539128,92.7470542,0,
12248540552,Цирк,55.9962977,92.9046474,0,
12248540558,Юбилейная (улица Свердловская),55.9804185,92.8560171,0,
12248540562,Станция Енисей,55.9789625,92.8424516,0,
12248540567,мкрн. Тихие зори,55.9801837,92.8001969,0,
12258596586,Монтажный колледж,55.9816386,92.8919331,0,
12258596588,Улица Транзитная (улица Павлова),55.9903287,92.9311829,0,
12262775155,7-й микрорайон,56.033101,92.8731395,0,
12262951001,Оптима,56.0399714,92.9020447,0,
12269668985,Кадастровая палата,56.0489993,92.8879649,0,
12269668990,ТРЦ Планета (улица 9 Мая),56.0519654,92.9006874,0,
12289972786,улица Счастливая,55.9775905,92.6703691,0,
12289981021,улица Живописная,55.9809464,92.6976215,0,
12290135138,Молодёжная,56.0548611,92.6984039,0,
12291632761,Платинум Арена,55.98092,92.8077786,0,
12291632763,Новая,55.9826807,92.866459,0,
12291632764,Новая,55.9825762,92.865398,0,
12304017478,Сады-43,55.9656221,92.9614232,0,
12327395364,Посёлок Водников,55.9720776,92.9482698,0,
12327395372,Сады-2 (Полигон),55.9588704,92.9647331,0,
12327466013,Улица Спандаряна,56.0285867,92.8938353,0,
12327500006,Вагонное депо,55.9981741,92.8245375,0,
12327500008,Улица Ломоносова,56.0015807,92.8318953,0,
12329570965,Шинный перекресток,56.018609,93.0293437,0,
12329570966,Шинный перекресток,56.0187264,93.02944,0,
12329570969,Мостоотряд,56.0067054,93.0343949,0,
12329570997,Социальный техникум,55.9906408,92.9995269,0,
12329570998,Социальный техникум,55.9905023,92.9989239,0,
12329600319,Техникум,55.9968599,92.9248222,0,
12329600328,Техникум,55.9901996,92.9135141,0,
12330914760,Федеральное БТИ,56.0337668,92.8956807,0,
12330914767,ХМЗ,55.9800913,92.8878348,0,
12336541194,Стадион (улица Елены Стасовой),56.0196921,92.7241471,0,
12336541196,Стадион (улица Елены Стасовой),56.0196257,92.7254851,0,
12339948526,Верхние Черёмушки,55.983078,93.0154797,0,
12339948531,Улица Тобольская,55.9904551,93.023662,0,
12339948535,Офсет,55.9945085,93.0032396,0,
12340384522,СПТУ-18,56.0586483,92.9631736,0,
12340783604,Кинотеатр «Металлург»,55.9947713,92.9693518,0,
12343099036,Краевая детская больница,55.9949119,92.7794366,0,
12343099039,Центр социальной защиты,55.9857865,92.7568811,0,
12343256315,Автостоянка,56.002282,93.0472026,0,
12343256320,Сады (улица Борисевича),56.0079884,93.0545829,0,
12343256346,Станция Злобино,55.9950217,92.9504625,0,
12343368484,Улица Храпова,56.0560484,93.016821,0,
12343374007,Лалетино,55.9702769,92.7642089,0,
12343374018,Стела,55.9660679,92.723,0,
12343458009,Сбербанк,56.0393038,92.915775,0,
12345958060,Улица 4-я Шинная,56.0015842,93.0413679,0,
12346602102,Платформа Металлургов,56.0721633,92.9807829,0,
12346602126,Улица Каховская,56.0267295,92.8630754,0,
12346626707,Деревня Песчанка,56.0797791,93.0923293,0,
12346626719,Магазин (деревня Песчанка),56.0826034,93.081134,0,
12348517756,Боготольский переулок,56.0160025,92.8268075,0,
12362984811,ЖК «Ясный»,56.0642688,92.8784566,0,
12363024068,ЖК «Квадро»,56.0447602,92.8797229,0,
12365639195,Контейнерный двор,56.025126,93.0684069,0,
12365663806,Станция Базаиха,56.0236504,93.0618594,0,
12365663812,Школа (Медицинский переулок),55.9732942,92.8473658,0,
12365663830,ГАПО-2,55.9758606,92.8756801,0,
12365942139,Посёлок Базаиха,55.9671509,92.8146558,0,
278126053,Предмостная площадь,55.9918143,92.8876623,0,
418538296,Улица Киренского,56.0167544,92.8007791,0,
519128110,Магазин (улица Парашютная),55.9740871,92.8693855,0,
5009303431,Краевая детская больница,55.9950389,92.780169,0,
5092472312,Площадь Победы,56.0229542,92.8850495,0,
5969031771,Улица Крылова,56.0219685,93.0104344,0,
5969576361,Институт,55.9919118,92.7612033,0,
5996209438,Школа,56.0170831,92.9901463,0,
8006582533,Посёлок Таймыр – Конечная,56.0481707,92.7283257,0,
8348314583,ГПТУ,56.016462,92.7802504,0,
9073226361,База Ленторга,56.0211088,93.0400351,0,
9084123400,Детская поликлиника (улица Монтажников),55.9846005,92.9481702,0,
9084140576,Переулок Маяковского,55.9916852,92.9673364,0,
10978271526,Рыбзавод,55.9787988,92.6797655,0,
12133645684,Славянский рынок,56.0191245,92.8212415,0,
12134025272,Улица Батурина,56.0380074,92.9064447,0,
12134025277,Водолей (улица Алексеева),56.0520127,92.9134136,0,
12135311160,Домик,56.0201122,92.7567424,0,
12135759930,Улица 60 лет Октября,55.9808296,92.885212,0,
12135770989,РОВД,55.9793998,92.8698776,0,
12135770990,Пикра,55.9800197,92.8756037,0,
12135770991,Художественное училище (улица 60 лет Октября),55.9803801,92.8799551,0,
12229420586,ЖК Полтавский,55.9853293,92.8661347,0,
12229420591,Третья поликлинника,55.9835142,92.8439434,0,
12248540529,Улица Урванцева,56.0640018,92.924474,0,
12248540537,Улица Петра Ломако,56.0548382,92.902623,0,
12248540543,Улица Авиаторов,56.0484757,92.9149225,0,
12248540549,Поликлиника,56.0117709,92.9591835,0,
12248540551,Возрождение кредит (улица Московская),56.0064181,92.9559481,0,
12255767728,Улица Пионерской Правды,55.9916798,92.9358241,0,
12255767729,Улица Пионерской Правды,55.9919018,92.9368179,0,
12255767734,Школа ДОСААФ,55.9883797,92.9243369,0,
12258596594,Улица Волгоградская,56.0048634,92.9647834,0,
12262775132,Парк Прищепка,56.0189972,92.7500686,0,
12262951003,Улица Линейная (улица Мужества),56.0333659,92.8785517,0,
12269668965,Улица Мартынова,56.0380527,92.8731985,0,
12269668967,Спорткомплекс «Сопка»,56.0005855,92.755406,0,
12289981007,станция Южная,55.9829951,92.7267018,0,
12289981013,пос. Дачный,55.9817343,92.7448601,0,
12290135178,Кладбище Бадалык,56.085687,92.9338998,0,
12291632758,улица Пастеровская,56.0082787,92.8066297,0,
12327395362,Выставочно-деловой центр Сибирь,56.0384528,92.9232775,0,
12327395368,Сады-43,55.9654753,92.9616078,0,
12327500004,Общежитие (улица Ломоносова),55.9961108,92.8191311,0,
12327500005,Вагонное депо,55.998303,92.8248802,0,
12327500007,Улица Ломоносова,56.0008419,92.8313598,0,
12329570986,Универмаг,55.9919658,93.0131281,0,
12329570988,Столовая (улица Читинская),55.9892295,93.0143359,0,
12329570990,Столовая,55.9886041,93.0135245,0,
12329600309,Гараж (улица Мичурина),55.9871514,92.9771478,0,
12329600315,Стадион Водник,55.9993715,92.9371406,0,
12329600318,ТЮЗ (улица Вавилова),55.9974575,92.9276972,0,
12329600325,ТЮЗ (улица Вавилова),55.9921192,92.9217843,0,
12329600329,ТЮЗ (улица Вавилова),55.9901774,92.9134174,0,
12329600330,Школа (улица Семафорная),55.9863208,92.8953332,0,
12329600331,Школа (улица Семафорная),55.9865591,92.8964482,0,
12330914789,Улица Тимошенкова,55.9683049,92.934318,0,
12330914796,ДК «Кировский»,55.984858,92.9421694,0,
12339948523,Кафе «Заря»,55.9927331,93.0048519,0,
12339948524,Верхние Черёмушки (конечная),55.9804944,93.0104214,0,
12339948528,Проспект Машиностроителей,55.9855925,93.0199621,0,
12339948530,Улица Тобольская,55.9890796,93.0244739,0,
12340384543,Школа №156,56.1108382,92.9021521,0,
12343256317,пос. Шинников,56.0031963,93.0502766,0,
12343256334,Универмаг «Амурский»,55.9965795,93.0287338,0,
12343368493,Биохимзавод,56.0418563,93.031009,0,
12343374004,Новостройка (ул. Свердловская),55.970672,92.7723698,0,
12343374012,Турбаза,55.968202,92.7447836,0,
12343374016,Роев ручей,55.9677469,92.7307059,0,
12346454951,Улица Николаева,56.0554556,92.9663229,0,
12346602111,"ООО ""Сибирский элемент""",56.0958885,93.0321139,0,
12346626705,Улица Быковского,56.0600143,92.9690084,0,
12350878877,Ульяновский проспект,56.0510659,92.9812171,0,
12361788241,"Улица Энергетиков, д.24",56.0055335,93.0301685,0,
12362903091,Улица Петра Ломако,56.0568117,92.9016095,0,
12362984805,Подстанция (улица Кразовская),56.0985598,93.0243876,0,
12362984808,Улица Джамбульская,56.0630926,92.9796053,0,
12365942145,Школа (улица Базайская),55.9640233,92.8012956,0,
12365942157,"Оздоровительный комплекс ""Гренада""",55.9507662,92.8335634,0,
276613555,Гараж,56.0559535,93.0209811,0,
817290238,переулок Послушников,55.9820297,92.7416744,0,
5969086605,Затон,55.9985052,92.9137873,0,
5969429999,Улица Луначарского,56.0135592,92.8010104,0,
5996214189,Хлебозавод,56.0190138,92.9984403,0,
5996218197,Каменный квартал,56.0209299,93.0067502,0,
9073226364,Новая Базаиха,56.022205,93.0543196,0,
9084140581,Переулок Маяковского,55.991946,92.9684937,0,
9084231660,Аптека (улица Тимошенкова),55.9720895,92.9435699,0,
9084345023,Учкомбинат,55.9916688,92.9741007,0,
9090758916,Хлебозавод (улица Семафорная),55.9821074,92.8606526,0,
9091159071,Магазин (улица Свердловская),55.9770752,92.8223205,0,
10774441427,Улица Соколовская,56.1138895,92.9065444,0,
12067895041,Автовокзал Восточный,56.0181582,93.0284031,0,
12134025276,Улица Алексеева,56.0479769,92.905652,0,
12134025278,Медицинский центр (улица Водопьянова),56.0564734,92.916956,0,
12134025279,Улица Водопьянова,56.0604675,92.9104783,0,
12134025281,Хутор,56.0643928,92.9085038,0,
12134027623,Школа,56.0453817,92.9059608,0,
12135311118,Снежная улица,56.022658,92.7473199,0,
12135759937,Афонтово,55.9780843,92.8580793,0,
12229419338,Западный микрорайон,56.0585219,92.729007,0,
12229420592,Третья поликлинника,55.9833337,92.8425931,0,
12229420594,Школа,55.982214,92.8346348,0,
12229420598,ЛДК,55.9810483,92.8263167,0,
12248540531,Детская поликлиника,56.0606498,92.9178387,0,
12248540532,Детская поликлиника,56.060901,92.9188065,0,
12248540533,1-й микрорайон,56.0587536,92.914535,0,
12248540534,1-й микрорайон,56.0581142,92.9128596,0,
12248540538,Планета,56.0512598,92.9084351,0,
12248540546,Остров Татышев,56.0267311,92.9420782,0,
12248540554,Студенческая (улица Свердловская),55.9835996,92.8844814,0,
12248540561,Станция Енисей,55.9787863,92.8407615,0,
12255767715,Улица Мичурина,56.0074994,92.9623865,0,
12255767739,Культбытстрой,55.9846998,92.9071097,0,
12255767742,Монтажный колледж,55.9814316,92.8905431,0,
12258596590,Оптика,55.9876957,92.9424108,0,
12262775143,ул. 2-я Брянская,56.0411678,92.8590416,0,
12262775151,Детский сад №49,56.040592,92.871743,0,
12269668981,Рынок «Луч»,56.0442928,92.8916663,0,
12269668986,Кадастровая палата,56.0487239,92.8867465,0,
12289972788,Рыбзавод,55.9787878,92.6788347,0,
12290135188,Центр «Эдельвейс»,56.1119948,92.915649,0,
12291632765,улица Сопочная,56.005529,92.8061346,0,
12304017471,мкрн. Преображенский,56.0591019,92.8966688,0,
12304017473,Центральный рынок Советского района,56.0358896,92.9199134,0,
12304017475,Посёлок Водников,55.9710062,92.9514998,0,
12327466014,Улица Шахтёров,56.0268598,92.8874214,0,
12327466018,Улица Игарская,56.0194827,92.8788481,0,
12327500017,Улица Турчанинова,56.0454442,92.7062831,0,
12329570967,Шинный завод,56.0127391,93.0314772,0,
12329570970,Мостоотряд,56.0059305,93.0345424,0,
12329570982,Поликлиника (улица Волжская),55.9957425,93.0137826,0,
12329570985,Универмаг,55.9923577,93.0128494,0,
12329600312,Площадь 50 лет Победы,56.0015402,92.9466143,0,
12330914769,Рембыттехника (улица Лесопильщиков),55.9775895,92.8818667,0,
12330914773,ТЭЦ-2,55.9734945,92.8949779,0,
12330914782,Улица Тургенева,55.9697491,92.9275429,0,
12330914783,Улица Тургенева,55.9698929,92.9275162,0,
12330914786,Садовая,55.9672768,92.9290258,0,
12339948525,Улица Даурская,55.9813711,93.0115856,0,
12339948533,Старые Черёмушки,55.9899659,93.0193462,0,
12339948543,Диагностический центр,56.0010885,93.0220769,0,
12340783605,Кинотеатр «Металлург»,55.9949997,92.969684,0,
12343099035,Комсомольская прощадь,56.0190965,92.7982493,0,
12343256340,Улица Амурская,55.9920673,93.0224537,0,
12343256343,Дворец молодежи,55.9974223,92.9596003,0,
12343368485,Улица Храпова,56.0555012,93.0175656,0,
12343374017,Роев ручей,55.9678838,92.731897,0,
12343458002,9-й микрорайон,56.0584386,92.9538961,0,
12343458007,Улица Воронова,56.0552651,92.9432562,0,
12345958056,Улица 40 лет Победы,56.1153794,92.9333374,0,
12346602101,Платформа Металлургов,56.0722273,92.9808071,0,
12346602122,Улица Гайдашовка,56.0671285,92.9520198,0,
12346602131,Улица Чернышевского,56.0269699,92.8717611,0,
12346626706,2-й микрорайон,56.0580114,92.9660717,0,
12346626734,Гортоп,56.0856461,93.0619294,0,
12346626738,Насосная,56.0855107,93.0486042,0,
12350878874,Стоматология (Ульяновский проспект),56.0466539,92.9729512,0,
12361788237,Рембыттехника (улица Затонская),55.9858467,92.9315298,0,
12362984804,Подстанция (улица Кразовская),56.0985167,93.0243879,0,
12362984810,ЖК «Ясный»,56.0637597,92.8789789,0,
12365805380,Школа №144,56.1084937,92.9204047,0,
12365942156,Поворот,55.9719225,92.7901995,0,
4348299509,Ульяновский проспект,56.0514111,92.9817708,0,
5969010069,Автовокзал Восточный,56.0182241,93.0286518,0,
5969034053,Хлебозавод,56.0187701,92.9966123,0,
5969084546,Торговый центр,56.0027214,92.9312357,0,
5969088575,ТЮЗ,56.0011767,92.924851,0,
5969100564,Правый берег,55.9954359,92.9010883,0,
6007819985,деревня Бадалык,56.1003236,92.9262733,0,
9078875943,Химкомбинат «Енисей»,56.0329246,93.0438731,0,
9084123385,Вариант 999,55.9782701,92.9479485,0,
9084123409,Улица Котовского,55.9898295,92.9591691,0,
9084341704,Образцово,55.9896708,92.9846405,0,
9084345021,Учкомбинат,55.9909504,92.9743551,0,
9091159068,"Улица Свердловская, д. 73",55.9773837,92.8283233,0,
11031468406,Канатная дорога,55.9646904,92.796152,0,
11254533021,Дом ученых,55.9851347,92.7490592,0,
12111469522,Улица Профсоюзов,56.0103922,92.8391099,0,
12133645686,Красномосковская-2,56.0222543,92.8205469,0,
12134025265,Педагогический университет,56.0165848,92.8617604,0,
12134025273,АЛПИ (улица Батурина),56.0414276,92.9009822,0,
12134025291,Комиссионный магазин,56.0161056,92.8474695,0,
12135311102,Стадион,56.0180768,92.7277657,0,
12135311165,Медицинский колледж,56.018318,92.7686894,0,
12135759924,ОАО «Красфарма»,55.9760821,92.8378084,0,
12229419342,Школьный городок,56.0551282,92.7374632,0,
12229419345,ДРСУ,56.0517938,92.7539212,0,
12229420595,ЛДК,55.9809259,92.8253865,0,
12248540530,Улица Урванцева,56.0643171,92.9255928,0,
12248540547,Остров Татышев,56.0274349,92.9413743,0,
12248540553,Предмостная площадь,55.9925034,92.8890003,0,
12248540566,мкрн. Тихие зори,55.9803288,92.8017604,0,
12255767741,Лукас,55.9828212,92.8985395,0,
12255767747,Улица Новосибирская,56.017022,92.8130427,0,
12262775148,мкрн. Яблони,56.0422068,92.8661298,0,
12269668977,Енисейский рынок,56.0365685,92.892069,0,
12269668988,Ледовый дворец,56.0492879,92.8953916,0,
12289972796,Школа искусств,56.0418213,92.9056938,0,
12289972799,Кода Медистал,56.0438063,92.9099269,0,
12289981002,Николаевская сопка,55.997569,92.7558284,0,
12290135164,мкрн. Солнечный (конечная),56.1193243,92.9378007,0,
12290135166,Улица Норильская,56.055396,92.7046017,0,
12290135183,ЖК «Ярослав»,56.1043946,92.9098216,0,
12290135184,ЖК «Снегири»,56.1077789,92.910693,0,
12327395374,Сады Красноярец-4,55.9554114,92.9659267,0,
12327395378,Полигон (Конечная),55.9518695,92.9680187,0,
12327430200,Улица 3-я Дальневосточная,56.0345114,92.8441065,0,
12327466010,Мехзавод,56.0308618,92.8889027,0,
12327500003,Общежитие (улица Ломоносова),55.9960337,92.8188459,0,
12327500020,Сады-2 (пос. Овинный),56.040427,92.6745869,0,
12329570962,посёлок Технический,56.0330558,93.0322205,0,
12329570977,Улица Волжская (улица Говорова),55.997055,93.0191964,0,
12329600301,2-я улица Суворова,55.9897548,92.9958486,0,
12330914752,Водокачка,55.9733699,92.9365691,0,
12330914754,Кардиоцентр,56.0476055,92.8814214,0,
12330914756,Енисейский рынок (улица Мартынова),56.0384634,92.8887651,0,
12330914778,Посёлок Цементников (магазин),55.9697533,92.9133994,0,
12330914780,Улица Братская,55.9702704,92.9188013,0,
12339948536,Райсобес,55.9971773,93.0060338,0,
12340384523,СПТУ-18,56.0590676,92.9623378,0,
12340384525,Школа милиции,56.0628053,92.9550746,0,
12340384527,11-й микрорайон,56.0622576,92.9495609,0,
12343256314,Автостоянка,56.0025524,93.0467715,0,
12343256321,Сады (улица Борисевича),56.0088196,93.0542908,0,
12343256323,Новостройка,56.0088961,93.0514401,0,
12343256324,Северная,56.0065791,93.0460174,0,
12343256328,Черёмушки,56.0005804,93.0345057,0,
12343368482,Причал,56.0583786,93.014026,0,
12343368486,2-я Фестивальная,56.0525746,93.0185257,0,
12343374006,Почта (улица Свердловская),55.9705543,92.7696662,0,
12343458006,Улица Воронова,56.0555326,92.9441655,0,
12346602130,Улица Чернышевского,56.0269781,92.8720876,0,
12346602140,Улица Шахтёров,56.0275174,92.8873443,0,
12346626725,Школа (деревня Песчанка),56.0839305,93.076059,0,
12346626737,Насосная,56.0855121,93.0487114,0,
12350878870,Профилакторий завода КраМЗ,56.0536925,92.9850396,0,
12350955515,Стадион (улица Светлова),56.1216961,92.9223094,0,
12362903100,Переезд (улица Кразовская),56.1033027,93.024321,0,
12365663825,Стоматология (улица Парашютная),55.9755496,92.8722246,0,
12365663833,Водоканал,55.9778351,92.8790694,0,
12365663837,Поликлиника (улица Саянская),55.9736965,92.8410777,0,
12365748326,Школа (улица Щорса),55.9883951,92.9351375,0,
12365748335,Промучасток,56.0999888,93.0620644,0,
12365748338,Пожарная часть (улица Пограничников),56.1052791,93.0719805,0,
12365805370,Школа (улица Алексеева),56.0459971,92.9016813,0,
12365942133,"СНТ ""Такмак""",55.9611171,92.8205745,0,
12365942140,Казахлес,55.9645132,92.8073804,0,
293390404,Хлебозавод (улица Свердловская),55.9813904,92.8627346,0,
749109735,"СНТ ""Алюминий""",56.0723668,92.9717707,0,
755942973,Хлебозавод,55.978926,92.866108,0,
4360280866,Госпиталь инвалидов ВОВ (улица Сады),56.0192288,92.7654738,0,
5969669852,Управление социальной защиты,56.0180304,92.8101722,0,
6007833483,База КПС,56.079057,92.9357637,0,
9078875940,"ДК ""Химик""",56.031142,93.0239381,0,
9079035014,Библиотека,55.9876557,92.9013983,0,
9084123380,Столовая (ул. Затонская),55.9783898,92.9375475,0,
9084123384,Вариант 999,55.9775172,92.9475963,0,
9084185332,Посёлок Водников,55.9711314,92.9374898,0,
9091159062,ОАО «Красфарма» (улица Свердловская),55.9780766,92.8345772,0,
12071656277,Спорткомплекс Радуга,56.011685,92.7257176,0,
12115290465,Улица Мичурина,56.0077916,92.9617476,0,
12133645683,Славянский рынок,56.018389,92.820655,0,
12133645694,улица Красной Гвардии,56.0218667,92.8422786,0,
12133645695,Физкультурный техникум,56.0187306,92.8435113,0,
12134025271,Междугородный автовокзал,56.0319209,92.9064934,0,
12134025280,Светлогорский переулок,56.0616921,92.9084552,0,
12134025283,Магазин (улица Светлогорская),56.067433,92.9190401,0,
12134027628,Водолей (улица Алексеева),56.0523435,92.9149471,0,
12135311161,Домик,56.0203189,92.7578414,0,
12135759934,РОВД,55.9791707,92.8680377,0,
12229419335,Озеро-парк,56.0605412,92.7196166,0,
12229419347,АЗС (улица Калинина),56.047581,92.7705984,0,
12248540555,Художественное училище,55.9832135,92.8803714,0,
12255767733,Школа ДОСААФ,55.9882745,92.9238859,0,
12255767737,Техникум транспорта и сервиса,55.9863427,92.9162291,0,
12255873392,Улица Киренского,56.0163376,92.8008049,0,
12255904705,Улица Новосибирская,56.0182152,92.8148228,0,
12255904706,Улица Новосибирская,56.0191736,92.813462,0,
12255904707,Спорткомплекс «Сибиряк»,56.0225932,92.8130789,0,
12262775160,"Улица Молокова, д. 39",56.0356542,92.8938054,0,
12269668966,Сады (улица Курчатова),56.0156576,92.7870473,0,
12269668968,Спорткомплекс «Сопка»,56.0002453,92.7544866,0,
12269668975,мкрн. Покровский,56.0375275,92.8796178,0,
12269668976,мкрн. Покровский,56.0340659,92.8799343,0,
12269668980,Южный рынок,56.0410409,92.8927247,0,
12269668982,Рынок «Луч»,56.044806,92.8911475,0,
12289981020,Сосны,55.9815603,92.7059671,0,
12290135173,Школа №147,56.069085,92.9350165,0,
12290135182,ЖК «Ярослав»,56.1031767,92.9098331,0,
12290257878,Западный микрорайон,56.0584384,92.7270158,0,
12327395359,мкрн. Преображенский,56.0609501,92.8942733,0,
12327430199,Библиотека имени К.Г. Паустовского,56.0329514,92.8647441,0,
12327466006,Улица Водянникова,56.0330674,92.8615629,0,
12327500016,Улица Турчанинова,56.0457273,92.7074416,0,
12329570991,Школа (улица Аральская),55.9885732,93.0079405,0,
12330914759,"Улица Мартынова, д.11",56.038297,92.8804508,0,
12339948529,Проспект Машиностроителей,55.9868681,93.0216173,0,
12340384524,Школа милиции,56.0621129,92.9561785,0,
12340384535,Улица Гриболевская,56.1065908,92.9081583,0,
12340649100,Улица Полигонная,56.073659,92.9485937,0,
12340783617,Мебельный магазин,55.9887852,92.9429191,0,
12343256311,пос. Шинников (конечная),55.9981316,93.0566279,0,
12343256322,Новостройка,56.0088637,93.0520787,0,
12343256326,Улица 2-я Шинная,56.0017331,93.0389686,0,
12343256347,Улица Менделеева,55.994731,92.9491878,0,
12343256348,Универсам,55.9932895,92.942861,0,
12343368488,1-я Фестивальная,56.0500212,93.0181881,0,
12343368495,Проходная,56.0362891,93.0392644,0,
12343368497,ДОК,55.9754413,92.8017386,0,
12343374008,Лалетино,55.9702128,92.7632448,0,
12343458001,10-й микрорайон,56.0596062,92.9579118,0,
12346454954,Улица Светлогорская,56.0707179,92.9297261,0,
12346580391,Агротерминал,56.0754812,92.9608068,0,
12346580397,КРССУ,56.0895952,93.0293405,0,
12346626730,Деревня Песчанка,56.0845193,93.0718013,0,
12348483481,Улица Затонская,55.998412,92.9225945,0,
12350878880,Улица Комарова,56.0483858,92.9693401,0,
12350955507,Сквер имени Бориса Ряузова,56.1190139,92.9295556,0,
12350955509,Молодёжный проспект,56.1195767,92.9237392,0,
12350955514,ПТУ №85,56.1196977,92.9162856,0,
12365663811,Школа (Медицинский переулок),55.9732418,92.8494608,0,
12365663817,Улица Парашютная,55.9731985,92.8592832,0,
12365663822,Магазин (улица Парашютная),55.9736312,92.8676916,0,
12365663834,Водоканал,55.9777633,92.878042,0,
12365748340,ТЭЦ-3,56.1056349,93.097342,0,
12365805373,Слобода Весны,56.0434877,92.8965896,0,
358000272,Гастроном,55.9962506,92.7898382,0,
3615954606,Профилакторий завода КраМЗ,56.0535913,92.9849652,0,
5094263433,пос. ГЭС,56.0410802,92.7474818,0,
9084123404,Лицей «Перспектива»,55.9874837,92.9522361,0,
12134025292,Центральный рынок,56.0152904,92.8569245,0,
12135311107,Березовая,56.0201039,92.7291474,0,
12135770992,Улица 60 лет Октября,55.9809369,92.8864095,0,
12248540560,Октябрьская (улица Свердловская),55.9798019,92.8502401,0,
12262775152,Улица 4-я Дальневосточная,56.0372882,92.8718114,0,
12262775156,Улица Линейная (улица Мужества),56.0334732,92.8808173,0,
12289972798,Городок,56.0458861,92.9141059,0,
12304017472,Арена-Север,56.0511385,92.8966181,0,
12327466003,Улица 2-я Продольная,56.0350077,92.8583685,0,
12327500023,Посёлок Овинный,56.0390857,92.6675247,0,
12329600313,Площадь 50 лет Победы,56.0010203,92.9443546,0,
12330914764,Междугородный автовокзал (улица Взлетная),56.03377,92.9039848,0,
12330914792,Молодёжный центр,55.9694853,92.9398099,0,
12330914794,"Магазин ""Наш двор""",55.9711552,92.9473925,0,
12343256337,Школа №100,55.9936201,93.022568,0,
12345958049,Посёлок Цементников,55.9741732,92.9098726,0,
12346602119,Дымов,56.0700285,92.9473317,0,
12346626704,Улица Быковского,56.0603719,92.9698607,0,
12365748334,Промучасток,56.1003279,93.0626414,0,
12365805374,Улица Березина (улица Шахтёров),56.0323395,92.8907894,0,
12365942131,"Столбы ""Восточный вход""",55.9545113,92.8191598,0,
